{"business_id":"---kPU91CF4Lq2-WlRu9Lw","name":"Frankie's Raw Bar","stars":4.5,"city":"New Port Richey","state":"FL","latitude":28.2172884,"longitude":-82.7333444,"categories":"Seafood, Restaurants, Latin American, Food, Food Trucks"}
{"business_id":"--9osgUCSDUWUkoTLdvYhQ","name":"Will You Escape?","stars":5.0,"city":"Tucson","state":"AZ","latitude":32.253677,"longitude":-110.961772,"categories":"Active Life, Challenge Courses, Escape Games"}
{"business_id":"--ARBQr1WMsTWiwOKOj-FQ","name":"Traveling Corks","stars":4.5,"city":"Tampa","state":"FL","latitude":27.9198839,"longitude":-82.4959357,"categories":"Wine Bars, Nightlife, Bars"}
{"business_id":"--LC8cIrALInl2vyo701tg","name":"Studio G Salon","stars":5.0,"city":"Tampa","state":"FL","latitude":28.0658857,"longitude":-82.5593005,"categories":"Hair Salons, Hair Stylists, Beauty & Spas"}
{"business_id":"--O3ip9NpXTKD4oBS1pY2A","name":"Alameda Park","stars":4.5,"city":"Santa Barbara","state":"CA","latitude":34.4283025212,"longitude":-119.7053968432,"categories":"Active Life, Parks"}
{"business_id":"--Sd93OFWITqDHifMoAy9g","name":"ProActive Physical Therapy","stars":4.5,"city":"Tucson","state":"AZ","latitude":32.3656703,"longitude":-111.0461341,"categories":"Physical Therapy, Health & Medical, Fitness & Instruction, Active Life, Sports Medicine, Doctors"}
{"business_id":"--ZVrH2X2QXBFdCilbirsw","name":"Chris's Sandwich Shop","stars":4.5,"city":"Ardmore","state":"PA","latitude":39.9972988,"longitude":-75.2922074,"categories":"American (Traditional), Restaurants, Pizza, Sandwiches, Meat Shops, Food, Wraps, Delis, Specialty Food, Salad"}
{"business_id":"--gJkxbsiSIwsQKbiwm_Ng","name":"Salon Lofts - West Kennedy","stars":5.0,"city":"Tampa","state":"FL","latitude":27.9451223,"longitude":-82.5210814,"categories":"Skin Care, Hair Salons, Beauty & Spas, Day Spas, Nail Salons"}
{"business_id":"--hF_3v1JmU9nlu4zfXJ8Q","name":"Green District Salads - Monument Circle","stars":4.5,"city":"Indianapolis","state":"IN","latitude":39.7678876,"longitude":-86.1583509,"categories":"Vegetarian, Restaurants, Wraps, Salad"}
{"business_id":"--qLiYw2ErSmvVwumb2kdw","name":"C.C.'s Kitchen","stars":5.0,"city":"Haddon Heights","state":"NJ","latitude":39.8829629,"longitude":-75.0580346,"categories":"Food, Restaurants, Soup, Desserts, American (New), Mediterranean"}
{"business_id":"--rS-rnOIZxoiDA8yctWpQ","name":"Publix GreenWise Market","stars":5.0,"city":"Tampa","state":"FL","latitude":27.9432912827,"longitude":-82.4501604729,"categories":"Organic Stores, Food, Grocery, Shopping, Public Markets"}
{"business_id":"--seHXaJfDtWbmFSxkzaRg","name":"Collingswood Dental Associates","stars":5.0,"city":"Collingswood","state":"NJ","latitude":39.9107709,"longitude":-75.084177,"categories":"Health & Medical, Periodontists, Dentists, Cosmetic Dentists, General Dentistry"}
{"business_id":"--sgBOzb76sjOQ-Xhdjffw","name":"Allen's Aquatic Adventures","stars":5.0,"city":"St Pete beach","state":"FL","latitude":27.7087054,"longitude":-82.7359627,"categories":"Active Life, Tubing, Snorkeling, Boating, Boat Tours, Event Planning & Services, Boat Charters, Tours, Hotels & Travel"}
{"business_id":"--x_BmZbxzK_nx_GHBaRVw","name":"New Orleans Movie Tours","stars":4.5,"city":"New Orleans","state":"LA","latitude":29.9575819,"longitude":-90.0620566,"categories":"Arts & Entertainment, Cinema, Local Flavor, Hotels & Travel, Tours"}
{"business_id":"--zb12mw2YK-7j6UaHzm8w","name":"Billy Wright's Manuel's Style Hot Tamales","stars":4.5,"city":"New Orleans","state":"LA","latitude":30.0194903,"longitude":-90.1064893,"categories":"Food, Street Vendors"}
{"business_id":"-02xFuruu85XmDn2xiynJw","name":"Family Vision Center","stars":4.5,"city":"Tucson","state":"AZ","latitude":32.2510387,"longitude":-110.8331729,"categories":"Shopping, Ophthalmologists, Optometrists, Doctors, Eyewear & Opticians, Health & Medical, Laser Eye Surgery\/Lasik"}
{"business_id":"-06OYKiIzxsdymBMDAKZug","name":"Washoe Metal Fabricating","stars":4.5,"city":"Sparks","state":"NV","latitude":39.5255583,"longitude":-119.7392208,"categories":"RV Dealers, Home Services, Shopping, Tires, Auto Parts & Supplies, Automotive, Contractors, Towing, Oil Change Stations, Wheel & Rim Repair, Body Shops, Commercial Truck Repair, Auto Repair, Trailer Repair, Wholesale Stores"}
{"business_id":"-0TffRSXXIlBYVbb5AwfTg","name":"IndeBlue Modern Indian Food & Spirits","stars":4.5,"city":"Philadelphia","state":"PA","latitude":39.9485078263,"longitude":-75.1619688173,"categories":"Cocktail Bars, Food Delivery Services, Nightlife, Breakfast & Brunch, Food, Bars, Event Planning & Services, Caterers, Restaurants, Indian"}
{"business_id":"-0Ym1Wg3bXd_TDz8JtvOQg","name":"Yelo'd Ice Cream","stars":4.5,"city":"Edmonton","state":"AB","latitude":53.518487,"longitude":-113.493183,"categories":"Food, Ice Cream & Frozen Yogurt, Bakeries"}
{"business_id":"-0YvX6VK5S0u_hbQFYq10g","name":"European Motorworks","stars":4.5,"city":"Mount Juliet","state":"TN","latitude":36.200425,"longitude":-86.5142281,"categories":"Auto Repair, Auto Parts & Supplies, Automotive"}
{"business_id":"-0dKgi_Hpcis921nOpM85Q","name":"Cutter's Grand BBQ","stars":4.5,"city":"Garden City","state":"ID","latitude":43.6502742721,"longitude":-116.2818321878,"categories":"Restaurants, Barbeque"}
{"business_id":"-0fOUV_llBAPMo7exZFHPA","name":"Loft Studios Salon & Spa","stars":4.5,"city":"Saint Louis","state":"MO","latitude":38.599141,"longitude":-90.45273,"categories":"Nail Salons, Beauty & Spas, Hair Salons, Skin Care"}
{"business_id":"-0fvhILrC9UsQ6gLNpZlTQ","name":"David's Southern Fried Pies","stars":4.5,"city":"Philadelphia","state":"PA","latitude":40.046191,"longitude":-75.0150899,"categories":"Desserts, Food"}
{"business_id":"-0jzoPt3UeXn6FUXVQvyPg","name":"Trillium","stars":4.5,"city":"Boise","state":"ID","latitude":43.6141716,"longitude":-116.203816,"categories":"American (New), Restaurants"}
{"business_id":"-0ngqYUK3KQPHyst5hontQ","name":"John Voirol  - Circa Properties","stars":5.0,"city":"Clayton","state":"MO","latitude":38.6503587,"longitude":-90.3371983,"categories":"Real Estate, Real Estate Agents, Home Services"}
{"business_id":"-0oBZu6Huzx5x3t9RJx9ow","name":"Downingtown Collision","stars":5.0,"city":"Downingtown","state":"PA","latitude":40.005679,"longitude":-75.705857,"categories":"Towing, Body Shops, Automotive"}
{"business_id":"-16EH6b1ho0xQqP0Bzm9Mg","name":"I Heart Corky Art Palm Harbor, FL","stars":4.5,"city":"Palm Harbor","state":"FL","latitude":28.1078916,"longitude":-82.7397089,"categories":"Paint & Sip, Art Galleries, Shopping, Arts & Entertainment, Party & Event Planning, Event Planning & Services"}
{"business_id":"-1Bvqy9wtFDyUB8GuDqQQw","name":"Francesca's Collections","stars":4.5,"city":"Reno","state":"NV","latitude":39.4715348,"longitude":-119.7836626,"categories":"Shopping, Accessories, Fashion"}
{"business_id":"-1XSzguS6XLN-V6MVZMg2A","name":"Restaurant Rebirth","stars":4.5,"city":"New Orleans","state":"LA","latitude":29.9435371,"longitude":-90.0653721,"categories":"Cajun\/Creole, Soup, Seafood, Restaurants, Steakhouses, Southern"}
{"business_id":"-1b2kNOowsPrPpBOK4lNkQ","name":"Usaqu\u00e9n","stars":4.5,"city":"Philadelphia","state":"PA","latitude":39.9766178,"longitude":-75.1408439,"categories":"Breakfast & Brunch, Colombian, Restaurants, Latin American"}
{"business_id":"-1b7CQbbl_3uotcTsxhHsw","name":"Moody's Butcher Shop","stars":4.5,"city":"Zionsville","state":"IN","latitude":39.9477711,"longitude":-86.2390659,"categories":"Specialty Food, Meat Shops, Food, Butcher"}
{"business_id":"-1dARtemb2Gy7XlftvtNXQ","name":"New Hope Pet Center","stars":4.5,"city":"New Hope","state":"PA","latitude":40.387747,"longitude":-74.99774,"categories":"Pet Stores, Pet Groomers, Pet Services, Pets"}
{"business_id":"-1g8Qb6t_mSX_ak1thMmrQ","name":"FreeWalkingTourSB","stars":5.0,"city":"Santa Barbara","state":"CA","latitude":34.420334,"longitude":-119.7107494,"categories":"Tours, Historical Tours, Hotels & Travel, Walking Tours"}
{"business_id":"-1hvq_mL4GSEwKE7z8xYug","name":"Classic Skate Shop","stars":4.5,"city":"Reno","state":"NV","latitude":39.5068828,"longitude":-119.8010001,"categories":"Shopping, Sporting Goods, Skate Shops"}
